[
    {
        "name": "福興葯房",
        "address": "九龍土瓜灣馬頭角道35B地下",
        "location": "土瓜灣",
        "area": "九龍"
    },
    {
        "name": "祥興藥房",
        "address": "九龍深水埔北河街 201 號地下",
        "location": "深水埗",
        "area": "九龍"
    },
    {
        "name": "*潮洲大藥房有限公司",
        "address": "九龍旺角道 18-20 號地下5號鋪",
        "location": "旺角北",
        "area": "九龍"
    },
    {
        "name": "富明西藥房",
        "address": "九龍青山道308號",
        "location": "長沙灣",
        "area": "九龍"
    },
    {
        "name": "仁愛藥房",
        "address": "大角咀埃華街57號地下",
        "location": "大角嘴",
        "area": "九龍"
    },
    {
        "name": "麒麟大藥房",
        "address": "土瓜灣美景街57號",
        "location": "土瓜灣",
        "area": "九龍"
    },
    {
        "name": "廣大西藥房",
        "address": "九龍土瓜灣243號G/F",
        "location": "土瓜灣",
        "area": "九龍"
    },
    {
        "name": "保康泰參茸海味葯業公司",
        "address": "香港九龍深水邨順寧道寶熙苑商場8號舖",
        "location": "長沙灣",
        "area": "九龍"
    },
    {
        "name": "偉華西藥房有限公司",
        "address": "青山道388-390號A舖地下",
        "location": "長沙灣",
        "area": "九龍"
    },
    {
        "name": "榮華中西藥房",
        "address": "紅磡黃埔花園紫荊苑商場地下",
        "location": "紅磡",
        "area": "九龍"
    },
    {
        "name": "利康中西藥房(奧海)有限公司",
        "address": "旺角西九龍奧海城2期1樓137號",
        "location": "大角嘴",
        "area": "九龍"
    },
    {
        "name": "仁康港灣藥房",
        "address": "大角咀福利街8號港灣豪庭廣場G23",
        "location": "大角嘴",
        "area": "九龍"
    },
    {
        "name": "榮華蔘茸中西藥行",
        "address": "青山道320號",
        "location": "長沙灣",
        "area": "九龍"
    },
    {
        "name": "康福藥業有限公司",
        "address": "九龍紅磡湖光街7號聯成大廈鴻運閣",
        "location": "紅磡",
        "area": "九龍"
    },
    {
        "name": "榮華參茸藥業公司(宇晴)",
        "address": "荔枝角深盛路9號宇晴滙 榮華藥業(泓景)有限公司",
        "location": "荔枝角",
        "area": "九龍"
    },
    {
        "name": "誠信葯房",
        "address": "馬頭圍道71-73號",
        "location": "紅磡",
        "area": "九龍"
    },
    {
        "name": "卓興大藥房有限公司",
        "address": "九龍土瓜灣馬頭角道7號地下",
        "location": "土瓜灣",
        "area": "九龍"
    },
    {
        "name": "信興葯房",
        "address": "土瓜灣馬頭圍道378號地下",
        "location": "土瓜灣",
        "area": "九龍"
    },
    {
        "name": "榮森藥房",
        "address": "九龍油麻地上海街145號地下",
        "location": "油麻地",
        "area": "九龍"
    },
    {
        "name": "信昌中西藥房",
        "address": "九龍馬頭圍道438號地下",
        "location": "土瓜灣",
        "area": "九龍"
    },
    {
        "name": "康信大藥房",
        "address": "九龍油麻地文蔚街文蔚樓6號地舖",
        "location": "油麻地",
        "area": "九龍"
    },
    {
        "name": "佳信大藥房",
        "address": "長沙灣青山道290-292號",
        "location": "長沙灣",
        "area": "九龍"
    },
    {
        "name": "全家福",
        "address": "土瓜灣馬頭圍道404號地下",
        "location": "土瓜灣",
        "area": "九龍"
    },
    {
        "name": "正安中西藥房",
        "address": "九龍紅磡德民街2-34號紅磡商場3號地舖",
        "location": "紅磡",
        "area": "九龍"
    },
    {
        "name": "永華西葯行有限公司",
        "address": "長沙灣青山道277號地下",
        "location": "長沙灣",
        "area": "九龍"
    },
    {
        "name": "嘉福(藝林)中西藥行",
        "address": "土瓜灣道 78A定安大廈地下1號鋪",
        "location": "土瓜灣",
        "area": "九龍"
    },
    {
        "name": "*皓暉藥坊有限公司",
        "address": "荔枝角景荔徑8號盈暉薈地下 G07號鋪",
        "location": "荔枝角",
        "area": "九龍"
    },
    {
        "name": "信德中西藥房",
        "address": "九龍馬頭圍道276 及276 A 號生昌大廈地下 A & B 鋪",
        "location": "土瓜灣",
        "area": "九龍"
    },
    {
        "name": "*回春園藥行",
        "address": "九龍藍田匯景花園商場324,334335號4樓",
        "location": "藍田",
        "area": "九龍"
    },
    {
        "name": "*慈安蔘茸中西藥行",
        "address": "九龍慈雲山毓華里30號嘉華大廈地下E1地鋪",
        "location": "慈雲山",
        "area": "九龍"
    },
    {
        "name": "長春中西藥房",
        "address": "九龍觀塘物華街11號",
        "location": "觀塘",
        "area": "九龍"
    },
    {
        "name": "長豐中西藥房超級市場有限公司",
        "address": "九龍灣德福廣場一期F15-15A",
        "location": "九龍灣",
        "area": "九龍"
    },
    {
        "name": "長成中西藥行",
        "address": "藍田興田商場2樓211號",
        "location": "藍田",
        "area": "九龍"
    },
    {
        "name": "潮發大藥房",
        "address": "九龍城衙前圍道88號地下G/F",
        "location": "九龍城",
        "area": "九龍"
    },
    {
        "name": "彩運藥房",
        "address": "九龍彩雲一村彩雲商場二期3樓A308號舖",
        "location": "牛池灣",
        "area": "九龍"
    },
    {
        "name": "鴻運大藥房有限公司",
        "address": "新蒲崗爵祿街五十號地下E舖",
        "location": "新蒲崗",
        "area": "九龍"
    },
    {
        "name": "啟源中西葯房有限公司",
        "address": "藍田啟田村啟田商場 #214A",
        "location": "藍田",
        "area": "九龍"
    },
    {
        "name": "*林勤記中西藥行",
        "address": "九龍灣啟業村啟業樓4號",
        "location": "九龍灣",
        "area": "九龍"
    },
    {
        "name": "李家園藥行",
        "address": "牛池灣金池徑33號",
        "location": "牛池灣",
        "area": "九龍"
    },
    {
        "name": "來安藥行",
        "address": "坪石村金石樓112號",
        "location": "牛池灣",
        "area": "九龍"
    },
    {
        "name": "天興中西藥行有限公司",
        "address": "官塘協和街165號",
        "location": "觀塘",
        "area": "九龍"
    },
    {
        "name": "宏輝中西葯行",
        "address": "新蒲崗崇齡街44號地下",
        "location": "新蒲崗",
        "area": "九龍"
    },
    {
        "name": "榮華蔘茸中西葯房",
        "address": "牛池灣清水灣道21號文德樓地舖",
        "location": "牛池灣",
        "area": "九龍"
    },
    {
        "name": "榮華參茸中西藥行",
        "address": "官塘翠屏村商場二樓117號",
        "location": "觀塘",
        "area": "九龍"
    },
    {
        "name": "和興中西藥行",
        "address": "官塘瑞和街27號C",
        "location": "觀塘",
        "area": "九龍"
    },
    {
        "name": "榮泰大藥房有限公司",
        "address": "新蒲崗爵祿街8號",
        "location": "新蒲崗",
        "area": "九龍"
    },
    {
        "name": "冠生中西大葯房",
        "address": "秀茂坪秀明道101號號秀茂坪商場 一樓 109-110 號鋪",
        "location": "秀茂坪",
        "area": "九龍"
    },
    {
        "name": "榮華蔘茸中西葯房",
        "address": "九龍油塘鯉魚門廣場 106-107舖",
        "location": "油塘",
        "area": "九龍"
    },
    {
        "name": "保民中西大葯房",
        "address": "九龍秀茂坪寶達村商場一樓103號舖",
        "location": "秀茂坪",
        "area": "九龍"
    },
    {
        "name": "康是美大藥房",
        "address": "九龍城衙前圍道138號地舖",
        "location": "九龍城",
        "area": "九龍"
    },
    {
        "name": "新城中西葯房",
        "address": "黃大仙彩虹道121號啟德花園2期地下3B室",
        "location": "黃大仙",
        "area": "九龍"
    },
    {
        "name": "大來大藥房有限公司",
        "address": "九龍觀塘協和街99號J鋪2樓B-D",
        "location": "觀塘",
        "area": "九龍"
    },
    {
        "name": "裕興中西藥行",
        "address": "藍田德田商場1樓113-116號",
        "location": "藍田",
        "area": "九龍"
    },
    {
        "name": "泛亞大藥房有限公司",
        "address": "九龍城獅子石道51號地鋪",
        "location": "九龍城",
        "area": "九龍"
    },
    {
        "name": "寶泰藥房有限公司",
        "address": "藍田匯景商場3樓1號舖",
        "location": "藍田",
        "area": "九龍"
    },
    {
        "name": "鴻運中西大藥房有限公司",
        "address": "新蒲崗爵祿街62-64號地下D,E舖",
        "location": "新蒲崗",
        "area": "九龍"
    },
    {
        "name": "榮華藥坊",
        "address": "油塘油麗苑商場1樓111-112號",
        "location": "油塘",
        "area": "九龍"
    },
    {
        "name": "金城中西藥行",
        "address": "慈雲山慈正村商場2期地下3號舖",
        "location": "慈雲山",
        "area": "九龍"
    },
    {
        "name": "鈞興大藥房有限公司",
        "address": "九龍牛頭角道33號宏光樓地下6號舖",
        "location": "牛頭角",
        "area": "九龍"
    },
    {
        "name": "仁信大藥房香港有限公司",
        "address": "藍田啟田道49號16-17號舖",
        "location": "藍田",
        "area": "九龍"
    },
    {
        "name": "*健榮大藥房",
        "address": "九龍新蒲崗爵祿街42號地舖",
        "location": "新蒲崗",
        "area": "九龍"
    },
    {
        "name": "*海城中西藥行",
        "address": "九龍牛頭角樂華村樂華商場107號鋪",
        "location": "牛頭角",
        "area": "九龍"
    },
    {
        "name": "和順堂中西藥房有限公司",
        "address": "牛頭角彩德村彩德商場505室",
        "location": "牛頭角",
        "area": "九龍"
    },
    {
        "name": "啟源中西藥房有限公司",
        "address": "茶果嶺道88號麗港城商場地下10-11號舖",
        "location": "藍田",
        "area": "九龍"
    },
    {
        "name": "嘉福中西大藥房",
        "address": "九龍灣啟晴村晴朗商場A011號舖",
        "location": "九龍灣",
        "area": "九龍"
    },
    {
        "name": "*萬藥坊中西大藥房",
        "address": "九龍牛頭角道15-19號嘉和園地下48A號舖",
        "location": "牛頭角",
        "area": "九龍"
    },
    {
        "name": "*恆生堂中西藥行",
        "address": "九龍藍田匯景道8號匯景廣場L4-2U舖",
        "location": "藍田",
        "area": "九龍"
    },
    {
        "name": "智文藥房(黃大仙中心)",
        "address": "九龍黃大仙中心南館一樓123A舖",
        "location": "黃大仙",
        "area": "九龍"
    },
    {
        "name": "藝海蔘茸西藥房",
        "address": "九龍黃大仙鳳凰新村環鳳街16號",
        "location": "慈雲山",
        "area": "九龍"
    },
    {
        "name": "曉麗藥行有限公司",
        "address": "曉麗苑曉麗商場231號鋪",
        "location": "觀塘",
        "area": "九龍"
    },
    {
        "name": "智文(慈雲山中心)",
        "address": "慈雲山毓華街23號慈雲山中心 5樓507號鋪",
        "location": "慈雲山",
        "area": "九龍"
    },
    {
        "name": "樂華藥業",
        "address": "牛頭角樂華北邨樂華北商場二樓204號舖",
        "location": "牛頭角",
        "area": "九龍"
    },
    {
        "name": "啟安中西藥行",
        "address": "牛頭角振華道70號樂華北邨信華樓 112號地下",
        "location": "牛頭角",
        "area": "九龍"
    },
    {
        "name": "東昇西藥房有限公司",
        "address": " 觀塘秀茂坪寶琳路2號安達商場LG23號鋪",
        "location": "秀茂坪",
        "area": "九龍"
    },
    {
        "name": "榮華中西藥房",
        "address": "牛頭角道牛頭角上邨商場3號舖",
        "location": "牛頭角",
        "area": "九龍"
    },
    {
        "name": "卓興藥粧",
        "address": "牛頭角道55號利基大廈地下 A3 & B 號鋪",
        "location": "牛頭角",
        "area": "九龍"
    },
    {
        "name": "福興大藥房",
        "address": "九龍灣牛頭角道77號淘大商場二期地下G181A 號舖",
        "location": "九龍灣",
        "area": "九龍"
    },
    {
        "name": "回春堂中西大藥行",
        "address": "九龍觀塘順利邨利康樓3樓商場 G5舖",
        "location": "觀塘",
        "area": "九龍"
    },
    {
        "name": "寶達藥房有限公司",
        "address": "秀茂坪寶琳路2號寶達商場地下 16 號鋪",
        "location": "秀茂坪",
        "area": "九龍"
    },
    {
        "name": "*啟德中西大藥房有限公司",
        "address": "啟德沐安街18號 啟朗苑地下零售區 G02 店",
        "location": "九龍灣",
        "area": "九龍"
    },
    {
        "name": "順悅西藥行",
        "address": "九龍順利紀律部隊宿舍第二層平台商鋪15B1",
        "location": "觀塘",
        "area": "九龍"
    },
    {
        "name": "*廣田大藥行",
        "address": "藍田廣田邨廣田商場地下8號鋪",
        "location": "藍田",
        "area": "九龍"
    },
    {
        "name": "*福勝中西藥行有限公司",
        "address": "九龍灣啟業村啟樂樓地下8號鋪",
        "location": "九龍灣",
        "area": "九龍"
    },
    {
        "name": "嘉利葯房",
        "address": "香港仔東勝道26號地下",
        "location": "香港仔",
        "area": "香港"
    },
    {
        "name": "豐達葯房",
        "address": "側魚涌祐民街6號益發大廈地舖22號",
        "location": "鰂魚涌",
        "area": "香港"
    },
    {
        "name": "康泰藥行",
        "address": "香港仔田灣嘉禾街2-12號地下",
        "location": "香港仔",
        "area": "香港"
    },
    {
        "name": "*金寶藥房",
        "address": "西環卑路乍街99號地下",
        "location": "西環",
        "area": "香港"
    },
    {
        "name": "僑豐西藥房   (海怡)",
        "address": "香港仔鴨利洲海怡半島廣場西翼一樓111舖",
        "location": "香港仔",
        "area": "香港"
    },
    {
        "name": "*僑豐中西藥行",
        "address": "香港太古城燕宮閣P404號2樓",
        "location": "鰂魚涌",
        "area": "香港"
    },
    {
        "name": "利康中西藥行",
        "address": "柴灣盛泰道100號杏花邨杏花新城西翼1樓179-180號舖",
        "location": "柴灣小西灣",
        "area": "香港"
    },
    {
        "name": "利東中西葯行",
        "address": "鴨脷洲利東邨道5號利東商場一期106號舖",
        "location": "香港仔",
        "area": "香港"
    },
    {
        "name": "海昇西藥房有限公司",
        "address": "則魚涌英皇道1018 號海景樓地下",
        "location": "鰂魚涌",
        "area": "香港"
    },
    {
        "name": "信義藥房",
        "address": "香港仔湖北街24號",
        "location": "香港仔",
        "area": "香港"
    },
    {
        "name": "天星藥房",
        "address": "香港仔大道177-179號地下",
        "location": "香港仔",
        "area": "香港"
    },
    {
        "name": "華富中西藥行",
        "address": "華富村華光樓703-704號",
        "location": "香港仔",
        "area": "香港"
    },
    {
        "name": "千島藥房",
        "address": "鰂魚涌英皇道997號惠利大廈地下1號舖",
        "location": "鰂魚涌",
        "area": "香港"
    },
    {
        "name": "萬事達﹝香港﹞藥房",
        "address": "香港西環皇后大道西451號",
        "location": "西環",
        "area": "香港"
    },
    {
        "name": "宜安藥房",
        "address": "北角春秧街65號",
        "location": "北角",
        "area": "香港"
    },
    {
        "name": "亨宜中西藥行有限公司",
        "address": "香港筲箕灣愛禮街2號愛蝶灣商場46號地下",
        "location": "筲箕灣",
        "area": "香港"
    },
    {
        "name": "富明西藥房",
        "address": "香港灣仔道77-83號地下2號舖",
        "location": "灣仔",
        "area": "香港"
    },
    {
        "name": "順利中西藥行",
        "address": "香港柴灣怡豐街金源樓23號地下",
        "location": "柴灣小西灣",
        "area": "香港"
    },
    {
        "name": "健豐中西藥房有限公司",
        "address": "北角英皇道560號健威商場L16舖",
        "location": "北角",
        "area": "香港"
    },
    {
        "name": "有成葯行",
        "address": "鴨利洲村利滿樓3號",
        "location": "香港仔",
        "area": "香港"
    },
    {
        "name": "天力藥房",
        "address": "香港筲箕灣東大街118-124號地下",
        "location": "筲箕灣",
        "area": "香港"
    },
    {
        "name": "仁德大藥房",
        "address": "香港天后電氣道60號地下",
        "location": "北角",
        "area": "香港"
    },
    {
        "name": "*森永大藥房",
        "address": "西環德輔道西326A閣樓",
        "location": "西環",
        "area": "香港"
    },
    {
        "name": "華達中西藥房",
        "address": "西環德輔道西364號地下7號舖",
        "location": "西環",
        "area": "香港"
    },
    {
        "name": "國城大藥房",
        "address": "北角英皇道349A號新達大廈4號地下",
        "location": "北角",
        "area": "香港"
    },
    {
        "name": "英華西藥房",
        "address": "香港鴨脷洲鴨脷洲大街78號A舖",
        "location": "香港仔",
        "area": "香港"
    },
    {
        "name": "誠德大藥房有限公司",
        "address": "香港仔成都道26號添喜大廈地下7號舖",
        "location": "香港仔",
        "area": "香港"
    },
    {
        "name": "仁和中西大藥房",
        "address": "香港天后英皇道2號地下B舖",
        "location": "北角",
        "area": "香港"
    },
    {
        "name": "天力藥房(筲箕灣)有限公司",
        "address": "筲箕灣東大街118-124號地下東泰大廈C3-C5號舖",
        "location": "筲箕灣",
        "area": "香港"
    },
    {
        "name": "富泰藥房有限公司",
        "address": "北角道11-13號鴻日大廈地下2號鋪",
        "location": "北角",
        "area": "香港"
    },
    {
        "name": "*信安中西大藥房",
        "address": "香港灣仔春園街47號新春園大廈地下",
        "location": "灣仔",
        "area": "香港"
    },
    {
        "name": "正佳藥房有限公司",
        "address": "西營盤正街38號地下",
        "location": "西環",
        "area": "香港"
    },
    {
        "name": "卓興大藥房有限公司",
        "address": "香港杏花村杏花街市地下3, 3A, 4 號舖",
        "location": "柴灣小西灣",
        "area": "香港"
    },
    {
        "name": "*信譽藥房有限公司",
        "address": "香港堅尼地城卑路乍街136號",
        "location": "西環",
        "area": "香港"
    },
    {
        "name": "兆德大藥房",
        "address": "香港上環皇后大道中273-277 號喜利商業大廈地下C舖",
        "location": "中上環",
        "area": "香港"
    },
    {
        "name": "*活土西藥房(康怡廣場)",
        "address": "鰂魚涌康山道1號康怡廣場2樓S21-S22號舗",
        "location": "鰂魚涌",
        "area": "香港"
    },
    {
        "name": "華貴蔘茸中西大藥行",
        "address": "香港仔華貴道3號地下華貴坊地下8號鋪",
        "location": "香港仔",
        "area": "香港"
    },
    {
        "name": "卓興大藥房",
        "address": "香港仔中心4期地下4A舖",
        "location": "香港仔",
        "area": "香港"
    },
    {
        "name": "智文(海怡)",
        "address": "鴨脷洲海怡路12A海怡廣場(西翼)122號舖",
        "location": "香港仔",
        "area": "香港"
    },
    {
        "name": "富裕中西藥房有限公司",
        "address": "香港灣仔道59, 61 & 63號地下 B號鋪",
        "location": "灣仔",
        "area": "香港"
    },
    {
        "name": "東興大藥房有限公司",
        "address": "筲箕灣愛禮街2號愛蝶灣商場 55 號舖",
        "location": "筲箕灣",
        "area": "香港"
    },
    {
        "name": "*富豐大藥房",
        "address": "西環堅尼地城卑路乍街48號地下",
        "location": "西環",
        "area": "香港"
    },
    {
        "name": "嘉華參茸中西大藥房有限公司",
        "address": "小西灣小西灣道10號小西灣廣場2樓212舖",
        "location": "柴灣小西灣",
        "area": "香港"
    },
    {
        "name": "國城大藥房",
        "address": "新界沙田好運中心商場L3-30A號",
        "location": "沙田",
        "area": "新界"
    },
    {
        "name": "寶健大藥房有限公司",
        "address": "天水圍新北江商場地下A19-A21",
        "location": "天水圍",
        "area": "新界"
    },
    {
        "name": "德盛中西藥行",
        "address": "新界葵盛東村商場126號",
        "location": "葵涌",
        "area": "新界"
    },
    {
        "name": "寶康藥房",
        "address": "荃灣大窩口德士古道51號 地下",
        "location": "大窩口",
        "area": "新界"
    },
    {
        "name": "民豐西藥行",
        "address": "屯門龍門路龍門居地鋪85號地下",
        "location": "屯門南",
        "area": "新界"
    },
    {
        "name": "港城中西大葯房",
        "address": "葵芳盛芳街15號運芳樓地下3號舖",
        "location": "葵芳",
        "area": "新界"
    },
    {
        "name": "永安堂(坪洲)",
        "address": "坪洲永安街20號地下",
        "location": "坪洲",
        "area": "離島"
    },
    {
        "name": "陳萬昌藥行",
        "address": "石蔭路105號國寶樓B座地下",
        "location": "石蔭路",
        "area": "新界"
    },
    {
        "name": "長春中西藥行",
        "address": "荃灣河背街77號舖",
        "location": "荃灣",
        "area": "新界"
    },
    {
        "name": "長春中西藥行",
        "address": "荃灣海濱花園平台商場127號",
        "location": "荃灣",
        "area": "新界"
    },
    {
        "name": "中和藥行",
        "address": "荃灣川龍街12號",
        "location": "荃灣",
        "area": "新界"
    },
    {
        "name": "都盛中西藥行",
        "address": "葵涌安蔭村安蔭商場113號1樓",
        "location": "葵涌",
        "area": "新界"
    },
    {
        "name": "快域中西藥行",
        "address": "元朗錦繡花園市中心E座地下8A室",
        "location": "元朗",
        "area": "新界"
    },
    {
        "name": "福生藥行",
        "address": "元朗合益路宏發徑昌盛商場26號舖",
        "location": "元朗",
        "area": "新界"
    },
    {
        "name": "富康藥行(屯門)",
        "address": "新界屯門青翠徑 7號",
        "location": "屯門北",
        "area": "新界"
    },
    {
        "name": "金都城中西大藥行",
        "address": "屯門鄉事會路140號",
        "location": "屯門北",
        "area": "新界"
    },
    {
        "name": "恆威大藥房",
        "address": "荃灣川龍街64號",
        "location": "荃灣",
        "area": "新界"
    },
    {
        "name": "健昌藥行",
        "address": "元朗屏匯街9號同發大廈 O 號舖",
        "location": "元朗",
        "area": "新界"
    },
    {
        "name": "冠誠西葯房",
        "address": "元朗大棠路23號合益廣場地下A57",
        "location": "元朗",
        "area": "新界"
    },
    {
        "name": "李家園中西藥行",
        "address": "元朗朗屏村鏡屏樓平臺 M3",
        "location": "元朗",
        "area": "新界"
    },
    {
        "name": "聯益中西葯房",
        "address": "新界屯門蝴蝶邨 蝴蝶廣場地下R107",
        "location": "屯門南",
        "area": "新界"
    },
    {
        "name": "萬昌中西藥行",
        "address": "屯門大興村商場2樓58號舖",
        "location": "屯門北",
        "area": "新界"
    },
    {
        "name": "南北中西大藥房",
        "address": "元朗康樂路 12 號地下",
        "location": "元朗",
        "area": "新界"
    },
    {
        "name": "新利西藥房",
        "address": "屯門鄉事會路94-110號康利中心地下21號舖",
        "location": "屯門北",
        "area": "新界"
    },
    {
        "name": "德仁藥房",
        "address": "葵芳盛芳街29號",
        "location": "葵芳",
        "area": "新界"
    },
    {
        "name": "德業中西藥行(美景)",
        "address": "青衣美景花園商場 95-96 號地下",
        "location": "青衣",
        "area": "新界"
    },
    {
        "name": "天瑞藥房",
        "address": "元朗天水圍天瑞邨天瑞商場1樓106號",
        "location": "天水圍",
        "area": "新界"
    },
    {
        "name": "*天和堂",
        "address": "葵涌 寶星 1樓 8號地下",
        "location": "石蘺",
        "area": "新界"
    },
    {
        "name": "東亞大葯房",
        "address": "新界 屯門愛勇街4號友愛邨H.A.N.D.S啇埸S區2樓S215,S216號舖",
        "location": "屯門南",
        "area": "新界"
    },
    {
        "name": "東亞中西藥房(置樂)",
        "address": "屯門置樂花園商場 1-4號地下",
        "location": "屯門南",
        "area": "新界"
    },
    {
        "name": "東方中西藥業公司",
        "address": "長洲興隆街107號地下",
        "location": "長洲",
        "area": "離島"
    },
    {
        "name": "華興中西藥房",
        "address": "屯門良景村商場3樓333室",
        "location": "屯門北",
        "area": "新界"
    },
    {
        "name": "*華豐中西藥業公司",
        "address": "長洲新興街56號地下",
        "location": "長洲",
        "area": "離島"
    },
    {
        "name": "緯昌西藥房",
        "address": "葵涌石陰路葵麗樓39鋪地下",
        "location": "石蔭路",
        "area": "新界"
    },
    {
        "name": "永春園藥行",
        "address": "長康村2期康順樓B209號",
        "location": "青衣",
        "area": "新界"
    },
    {
        "name": "永安堂(長洲)",
        "address": "長洲大新街41號地下",
        "location": "長洲",
        "area": "離島"
    },
    {
        "name": "榮華參茸中西藥房",
        "address": "葵涌石蔭路98-100號葵發大廈地下",
        "location": "石蔭路",
        "area": "新界"
    },
    {
        "name": "仁昌藥房",
        "address": "元朗西堤街25號地下",
        "location": "元朗",
        "area": "新界"
    },
    {
        "name": "耀愛西藥行",
        "address": "元朗又新街35號怡豐大廈 7",
        "location": "元朗",
        "area": "新界"
    },
    {
        "name": "智生藥房",
        "address": "石蔭路天安樓78號A",
        "location": "石蔭路",
        "area": "新界"
    },
    {
        "name": "道安(富榮)藥房有限公司",
        "address": "新界天水圍天澤村天澤商場2樓223-224號舖",
        "location": "天水圍",
        "area": "新界"
    },
    {
        "name": "榮華參茸中西葯房(天澤)",
        "address": "天水圍天澤村商場2/F 213B號",
        "location": "天水圍",
        "area": "新界"
    },
    {
        "name": "仁人中西藥房",
        "address": "天水圍天澤商場街市TC6號舖",
        "location": "天水圍",
        "area": "新界"
    },
    {
        "name": "錦業中西葯行",
        "address": "元朗大棠道32-34號捷榮樓F舖",
        "location": "元朗",
        "area": "新界"
    },
    {
        "name": "協興中西葯行",
        "address": "荃灣中心商場 S26 地下",
        "location": "荃灣",
        "area": "新界"
    },
    {
        "name": "金安中西藥行",
        "address": "大窩口石頭街商場8號地下",
        "location": "大窩口",
        "area": "新界"
    },
    {
        "name": "榮華中西藥房有限公司",
        "address": "荃灣麗城花園第3期麗城薈街市地下M15-M20舖",
        "location": "荃灣",
        "area": "新界"
    },
    {
        "name": "明逸中西藥海味行",
        "address": "東涌逸東商場地下10號",
        "location": "東涌",
        "area": "離島"
    },
    {
        "name": "祥益西葯房",
        "address": "屯門良景邨商場L431號",
        "location": "屯門北",
        "area": "新界"
    },
    {
        "name": "群益中西藥行",
        "address": "葵涌村街市36號",
        "location": "葵涌",
        "area": "新界"
    },
    {
        "name": "偉景西葯房",
        "address": "石蔭路113-117號E鋪",
        "location": "石蔭路",
        "area": "新界"
    },
    {
        "name": "長春參茸中西藥行",
        "address": "東涌映灣園商場二期28號地下",
        "location": "東涌",
        "area": "離島"
    },
    {
        "name": "金峰蔘茸海味中西大藥房",
        "address": "梨木樹商場地下7-8號",
        "location": "梨木樹",
        "area": "新界"
    },
    {
        "name": "樺泰參茸藥行",
        "address": "葵涌和宜合道地下9-10號",
        "location": "石蘺",
        "area": "新界"
    },
    {
        "name": "新宏興中西藥房",
        "address": "屯門啟民徑17-19號美恒大廈2號地下",
        "location": "屯門北",
        "area": "新界"
    },
    {
        "name": "華氏大葯房有限公司",
        "address": "元朗福康街2號地下",
        "location": "元朗",
        "area": "新界"
    },
    {
        "name": "智文藥業有限公司",
        "address": "元朗教育路3號富好大廈2-3號舖",
        "location": "元朗",
        "area": "新界"
    },
    {
        "name": "宏泰藥房",
        "address": "葵涌石蔭路71號金祿樓地下4號舖",
        "location": "石蔭路",
        "area": "新界"
    },
    {
        "name": "智文大藥房(時代南翼一樓)",
        "address": "屯門時代廣場南翼1樓15號舖",
        "location": "屯門北",
        "area": "新界"
    },
    {
        "name": "駿宏參茸中西藥房",
        "address": "天水圍天華路30號T TOWN (前頌富廣場) 24號地下",
        "location": "天水圍",
        "area": "新界"
    },
    {
        "name": "奧斯卡大藥行",
        "address": "元朗錦田公路錦田戲院大廈地下C舖",
        "location": "元朗",
        "area": "新界"
    },
    {
        "name": "歐冠大藥房",
        "address": "新界屯門湖翠路168-236號",
        "location": "屯門南",
        "area": "新界"
    },
    {
        "name": "安寧大藥坊",
        "address": "屯門富泰村商場 2/F 212號",
        "location": "洪水橋",
        "area": "新界"
    },
    {
        "name": "榮康藥房",
        "address": "元朗鳳攸北街2-6號永富閣16A鋪",
        "location": "元朗",
        "area": "新界"
    },
    {
        "name": "榮華參茸中西藥房(蝴蝶)",
        "address": "屯門蝴蝶邨廣場地下R118號",
        "location": "屯門南",
        "area": "新界"
    },
    {
        "name": "天瑞中西藥房",
        "address": "元朗天水圍天耀廣場1樓102室",
        "location": "天水圍",
        "area": "新界"
    },
    {
        "name": "學勤藥房有限公司",
        "address": "新界屯門啟發徑1-5 & 9-13號萬成大廈地下3號舖",
        "location": "屯門北",
        "area": "新界"
    },
    {
        "name": "潮盛大藥房",
        "address": "荃灣眾安街53號地下",
        "location": "荃灣",
        "area": "新界"
    },
    {
        "name": "*聯邦參茸中西葯行",
        "address": "荃灣禾笛街23號地下",
        "location": "荃灣",
        "area": "新界"
    },
    {
        "name": "柏萊中西葯行",
        "address": "新界青衣翠怡花園商場地下301號舖",
        "location": "青衣",
        "area": "新界"
    },
    {
        "name": "洪運參茸中西藥行有限公司",
        "address": "新界元朗洪水橋田心路洪福商場 3號舖",
        "location": "洪水橋",
        "area": "新界"
    },
    {
        "name": "康達大藥房有限公司",
        "address": "新界屯門寶怡花園商場地下G3號舖",
        "location": "屯門北",
        "area": "新界"
    },
    {
        "name": "*福生堂中西葯行",
        "address": "大澳永安街38號地下",
        "location": "大澳",
        "area": "離島"
    },
    {
        "name": "*信興號",
        "address": "大澳永安街39-41號地下",
        "location": "大澳",
        "area": "離島"
    },
    {
        "name": "啟源中西葯房有限公司",
        "address": "元朗朗晴邨青朗樓地下2號舖",
        "location": "元朗",
        "area": "新界"
    },
    {
        "name": "德華百貨",
        "address": "荃灣荃景圍187-195號荃威花園地下2A號舖荃威花園地下2A號舖",
        "location": "荃灣",
        "area": "新界"
    },
    {
        "name": "榮華參茸中西藥房(天悅)",
        "address": "天水圍天華路33及39號天悅邨NG07 號舖",
        "location": "天水圍",
        "area": "新界"
    },
    {
        "name": "*港泰海味蔘茸藥行",
        "address": "青衣長亨村街市30-32號",
        "location": "青衣",
        "area": "新界"
    },
    {
        "name": "天恩藥業有限公司",
        "address": "元朗天水圍天瑞路9號天恩商場街巿地鋪2號",
        "location": "天水圍",
        "area": "新界"
    },
    {
        "name": "偉大藥行",
        "address": "青衣寮肚路9號長 宏邨商場地下 1號舖",
        "location": "青衣",
        "area": "新界"
    },
    {
        "name": "寶健大藥房(香港)有限公司",
        "address": "天水圍天恩路12號嘉湖銀座一期 1樓 139號",
        "location": "天水圍",
        "area": "新界"
    },
    {
        "name": "信大藥房有限公司",
        "address": "荃灣川龍街35-39號川龍樓 地下1號鋪",
        "location": "荃灣",
        "area": "新界"
    },
    {
        "name": "金城中西葯行",
        "address": "青衣長發村長發商場 303 號舖",
        "location": "青衣",
        "area": "新界"
    },
    {
        "name": "榮華參茸中西藥房",
        "address": "荃灣曹公坊26號傳德樓地下",
        "location": "荃灣",
        "area": "新界"
    },
    {
        "name": "榮華明尚YOHO II",
        "address": "元朗朗日路8號 形點IIA330號舖",
        "location": "元朗",
        "area": "新界"
    },
    {
        "name": "尚德中西藥房",
        "address": "屯門富泰邨富泰商場1樓 103B 鋪",
        "location": "屯門北",
        "area": "新界"
    },
    {
        "name": "大師藥房有限公司",
        "address": "屯門石排頭徑1號卓爾廣場 2 樓 215 及 216 號舖",
        "location": "屯門北",
        "area": "新界"
    },
    {
        "name": "富城中西藥行",
        "address": "新界青衣青衣商場101號鋪",
        "location": "青衣",
        "area": "新界"
    },
    {
        "name": "葵芳中西大藥行有限公司",
        "address": "葵芳葵芳邨商場1樓116鋪",
        "location": "葵芳",
        "area": "新界"
    },
    {
        "name": "濟生藥行",
        "address": "荃灣荃景圍荃灣中心S40A",
        "location": "荃灣",
        "area": "新界"
    },
    {
        "name": "榮華參茸中西藥房",
        "address": "荃灣海之戀商場3樓3029-3030鋪",
        "location": "荃灣",
        "area": "新界"
    },
    {
        "name": "遠東藥行",
        "address": "新界荃灣梨木樹邨梨木樹商場地下街市63-64鋪",
        "location": "梨木樹",
        "area": "新界"
    },
    {
        "name": "長城國產葯業西藥房",
        "address": "沙田禾輋商場二樓204A-205A",
        "location": "沙田",
        "area": "新界"
    },
    {
        "name": "恒利大藥房",
        "address": "沙田沙角村沙燕樓2樓232-233號舖",
        "location": "沙田",
        "area": "新界"
    },
    {
        "name": "莊生中西藥行",
        "address": "大埔富亨村商場地下9號",
        "location": "大埔",
        "area": "新界"
    },
    {
        "name": "*健民大藥房",
        "address": "上水名都商場20A-B地下",
        "location": "上水",
        "area": "新界"
    },
    {
        "name": "冠生中西大藥房",
        "address": "大埔中心安邦路9號大埔超級城A區地下9-11號鋪",
        "location": "大埔",
        "area": "新界"
    },
    {
        "name": "冠華西葯房 O/B 加揚投資有限公司",
        "address": "大埔墟寶鄉街72號地下",
        "location": "大埔",
        "area": "新界"
    },
    {
        "name": "公信藥行",
        "address": "沙田博康村博華樓5號",
        "location": "沙田",
        "area": "新界"
    },
    {
        "name": "聯城中西大葯房",
        "address": "大埔富善街22號大埔富善街22號地下",
        "location": "大埔",
        "area": "新界"
    },
    {
        "name": "新城中西葯行",
        "address": "將軍澳新都城第一期商場218號",
        "location": "將軍澳",
        "area": "新界"
    },
    {
        "name": "尚德藥業公司",
        "address": "新界將軍澳尚德村商場2樓241號舖",
        "location": "將軍澳",
        "area": "新界"
    },
    {
        "name": "成豐中西藥行(香港)有限公司",
        "address": "沙田車公廟路69號顯徑村顯徑商場地下 111號鋪",
        "location": "大圍",
        "area": "新界"
    },
    {
        "name": "成豐參茸海味中西藥行(廣源)",
        "address": "沙田廣源村商場2座13號",
        "location": "沙田",
        "area": "新界"
    },
    {
        "name": "大安藥業公司",
        "address": "新界沙田大涌僑路河畔花園31號地下",
        "location": "沙田",
        "area": "新界"
    },
    {
        "name": "泰安中西藥行",
        "address": "上水彩園村彩珠樓102號地下",
        "location": "上水",
        "area": "新界"
    },
    {
        "name": "天和堂中西藥行",
        "address": "新界將軍澳翠林村商場5樓115號",
        "location": "將軍澳",
        "area": "新界"
    },
    {
        "name": "*華安藥行",
        "address": "新界西貢灣景街24號地下",
        "location": "西貢",
        "area": "新界"
    },
    {
        "name": "永寧葯房",
        "address": "西貢宜春街18號",
        "location": "西貢",
        "area": "新界"
    },
    {
        "name": "*榮華參茸中西藥房",
        "address": "常寧路２號厚德村TKO GATEWAY東翼地下E035-036號舖",
        "location": "將軍澳",
        "area": "新界"
    },
    {
        "name": "榮華參茸中西藥房",
        "address": "新界將軍澳尚德邨商場2樓201號B",
        "location": "將軍澳",
        "area": "新界"
    },
    {
        "name": "榮華蔘茸中西藥房",
        "address": "沙田第一城商場G35-36",
        "location": "沙田",
        "area": "新界"
    },
    {
        "name": "活士西藥房",
        "address": "馬鞍山新港城中心4期商場2樓2240-41號舖",
        "location": "馬鞍山",
        "area": "新界"
    },
    {
        "name": "漢興中西大藥房有限公司",
        "address": "大埔安邦路9號大埔超級城A區地下5-8號",
        "location": "大埔",
        "area": "新界"
    },
    {
        "name": "中輝參茸中西大藥行有限公司",
        "address": "粉嶺雍盛苑商場16號地下",
        "location": "粉嶺",
        "area": "新界"
    },
    {
        "name": "興達藥房",
        "address": "將軍澳彩明苑彩明商場3樓306號",
        "location": "將軍澳",
        "area": "新界"
    },
    {
        "name": "回春藥房",
        "address": "上水新豐路105號地舖",
        "location": "上水",
        "area": "新界"
    },
    {
        "name": "富善中西藥行",
        "address": "大埔富善邨商場F123舖",
        "location": "大埔",
        "area": "新界"
    },
    {
        "name": "文康大葯房",
        "address": "大埔安慈路翠屛商場16號舖地下",
        "location": "大埔",
        "area": "新界"
    },
    {
        "name": "冠文西藥房",
        "address": "大埔大光里10-22號地下鋪",
        "location": "大埔",
        "area": "新界"
    },
    {
        "name": "東昇蔘茸葯房有限公司",
        "address": "大埔運頭塘邨商場12號",
        "location": "大埔",
        "area": "新界"
    },
    {
        "name": "仁康藥房",
        "address": "將軍澳坑口培成路15號連理街商場1樓107號舖",
        "location": "將軍澳",
        "area": "新界"
    },
    {
        "name": "仁泰中西藥行",
        "address": "新界大埔廣福商場P205號舖",
        "location": "大埔",
        "area": "新界"
    },
    {
        "name": "*恆利中西大藥行",
        "address": "沙田石門安群街3號京瑞廣場一期G12號舖",
        "location": "沙田",
        "area": "新界"
    },
    {
        "name": "仁康中西藥房(香港)有限公司",
        "address": "將軍澳新都城第二期UG80-81號舖",
        "location": "將軍澳",
        "area": "新界"
    },
    {
        "name": "仁安大藥房",
        "address": "沙田大圍大圍道50號地下",
        "location": "大圍",
        "area": "新界"
    },
    {
        "name": "新都城中西藥房有限公司",
        "address": "將軍澳新都城2期UG37-38 號",
        "location": "將軍澳",
        "area": "新界"
    },
    {
        "name": "信大中西藥房",
        "address": "將軍澳景嶺路8號都會馬尺商場",
        "location": "將軍澳",
        "area": "新界"
    },
    {
        "name": "東昇藥行有限公司",
        "address": "馬鞍山耀安村耀安商場地下104室",
        "location": "馬鞍山",
        "area": "新界"
    },
    {
        "name": "東昇藥坊有限公司",
        "address": "粉嶺嘉福村商場11號鋪",
        "location": "粉嶺",
        "area": "新界"
    },
    {
        "name": "智文大藥房(沙田廣場)",
        "address": "沙田沙田廣場3樓37-38號舖",
        "location": "沙田",
        "area": "新界"
    },
    {
        "name": "智文大藥房(希爾頓中心)",
        "address": "沙田正街希爾頓中心3樓32號舖",
        "location": "沙田",
        "area": "新界"
    },
    {
        "name": "冠華西藥房",
        "address": "大埔大元邨大元商場A座地下412 & 416舖",
        "location": "大埔",
        "area": "新界"
    },
    {
        "name": "榮華藥業(將軍澳廣場)有限公司",
        "address": "將軍澳唐德街1號將軍澳廣場1樓69-72號舖",
        "location": "將軍澳",
        "area": "新界"
    },
    {
        "name": "榮華參茸中西藥房",
        "address": "將軍澳君傲灣君薈坊G/F, G16-18號鋪",
        "location": "將軍澳",
        "area": "新界"
    },
    {
        "name": "新興隆中西藥行有限公司",
        "address": "沙田田心街1號隆亨村隆亨商場101號鋪",
        "location": "大圍",
        "area": "新界"
    },
    {
        "name": "龍誠大藥行有限公司",
        "address": "沙田水泉澳廣場G03號鋪",
        "location": "沙田",
        "area": "新界"
    },
    {
        "name": "榮華藥房(豪庭)",
        "address": "將軍澳唐德街9號將軍澳豪庭地下 G102號鋪",
        "location": "將軍澳",
        "area": "新界"
    },
    {
        "name": "榮華藥業(天晉滙)有限公司",
        "address": "將軍澳唐賢街19號天晉滙2期地下G15號鋪",
        "location": "將軍澳",
        "area": "新界"
    },
    {
        "name": "萬順安粧藥",
        "address": "沙田安群街1號京瑞廣場2期地下 G12鋪",
        "location": "沙田",
        "area": "新界"
    },
    {
        "name": "新城藥房集團有限公司",
        "address": "馬鞍山鞍祿街MOSTOWN L2, 2316號鋪",
        "location": "馬鞍山",
        "area": "新界"
    },
    {
        "name": "東城藥房有限公司",
        "address": "新界將軍澳坑口重華路8號東港城215號舖",
        "location": "將軍澳",
        "area": "新界"
    },
    {
        "name": "恩澤中西大藥房有限公司",
        "address": "碩門村碩門商場 P10 號鋪",
        "location": "沙田",
        "area": "新界"
    },
    {
        "name": "*友信日韓藥粧有限公司",
        "address": "上水彩園路彩園邨彩園廣場 G6 號鋪",
        "location": "上水",
        "area": "新界"
    },
    {
        "name": "永興大藥房",
        "address": "將軍澳唐俊街11號寶盈花園商埸地下S7B & S8 鋪",
        "location": "將軍澳",
        "area": "新界"
    },
    {
        "name": "榮華參茸中西藥房",
        "address": "馬鞍山錦泰苑商場地下6號",
        "location": "馬鞍山",
        "area": "新界"
    },
    {
        "name": "廣源參茸中西大藥房",
        "address": "沙田小瀝源路68號廣源邨廣源商場2座3號鋪地下",
        "location": "沙田",
        "area": "新界"
    },
    {
        "name": "*新城中西藥房(香港)有限公司",
        "address": "新界將軍澳康城路1號The LOHAS 康城2樓204號舖",
        "location": "將軍澳",
        "area": "新界"
    },
    {
        "name": "",
        "address": "",
        "location": "",
        "area": ""
    }
]