[
    {
        "name": "英華西藥房",
        "Address": "香港鴨脷洲鴨脷洲大街78號A舖",
        "location": "香港仔",
        "area": "香港",
        "date": "9-10/1"
    },
    {
        "name": "智文(海怡)",
        "Address": "香港島鴨脷洲海怡路12A海怡廣場(西翼)122號舖",
        "location": "香港仔",
        "area": "香港",
        "date": "13-14/1"
    },
    {
        "name": "利東中西葯行",
        "Address": "香港島鴨脷洲利東邨道5號利東商場一期106號舖",
        "location": "香港仔",
        "area": "香港",
        "date": "23-24/1"
    },
    {
        "name": "僑豐西藥房   (海怡)",
        "Address": "香港島香港仔鴨利洲海怡半島廣場西翼一樓111舖",
        "location": "香港仔",
        "area": "香港",
        "date": "9-10./1"
    },
    {
        "name": "嘉利葯房",
        "Address": "香港島香港仔東勝道26號地下",
        "location": "香港仔",
        "area": "香港",
        "date": "4-5/1"
    },
    {
        "name": "天星藥房",
        "Address": "香港島香港仔大道177-179號地下",
        "location": "香港仔",
        "area": "香港",
        "date": "18-19/1"
    },
    {
        "name": "卓興大藥房",
        "Address": "香港島香港仔中心4期地下4A舖",
        "location": "香港仔",
        "area": "香港",
        "date": "2-3, 16-17/1"
    },
    {
        "name": "華達中西藥房",
        "Address": "香港島西環德輔道西364號地下7號舖",
        "location": "西環",
        "area": "香港",
        "date": "8-9/1"
    },
    {
        "name": "天力藥房",
        "Address": "香港島筲箕灣東大街98-112號景輝大廈G樓H鋪",
        "location": "筲箕灣",
        "area": "香港",
        "date": "23-24/1"
    },
    {
        "name": "天力藥房(筲箕灣)有限公司",
        "Address": "香港島筲箕灣東大街118-124號地下東泰大廈C3-C5號舖",
        "location": "筲箕灣",
        "area": "香港",
        "date": "9-10, 30-31/1"
    },
    {
        "name": "東興大藥房有限公司",
        "Address": "香港島筲箕灣愛禮街2號愛蝶灣商場 55 號舖",
        "location": "筲箕灣",
        "area": "香港",
        "date": "18-19/1"
    },
    {
        "name": "富明西藥房",
        "Address": "香港島灣仔道77-83號地下2號舖",
        "location": "灣仔",
        "area": "香港",
        "date": "18-19/1"
    },
    {
        "name": "富裕中西藥房有限公司",
        "Address": "香港島灣仔道59, 61 & 63號地下 B號鋪",
        "location": "灣仔",
        "area": "香港",
        "date": "11-12/1"
    },
    {
        "name": "嘉華參茸中西大藥房有限公司",
        "Address": "香港島小西灣小西灣道10號小西灣廣場2樓212舖",
        "location": "柴灣小西灣",
        "area": "香港",
        "date": "16-17/1"
    },
    {
        "name": "海昇西藥房有限公司",
        "Address": "香港島則魚涌英皇道1018 號海景樓地下",
        "location": "鰂魚涌",
        "area": "香港",
        "date": "16-17/1"
    },
    {
        "name": "兆德大藥房",
        "Address": "香港島上環皇后大道中273-277 號喜利商業大廈地下C舖",
        "location": "中上環",
        "area": "香港",
        "date": "20-21/1"
    },
    {
        "name": "東方中西藥業公司",
        "Address": "離島長洲興隆街107號地下",
        "location": "長洲",
        "area": "離島",
        "date": "3-4/1"
    },
    {
        "name": "永安堂(長洲)",
        "Address": "離島長洲大新街41號地下",
        "location": "長洲",
        "area": "離島",
        "date": "16-17/1"
    },
    {
        "name": "長春參茸中西藥行",
        "Address": "離島東涌映灣園商場二期28號地下",
        "location": "東涌",
        "area": "離島",
        "date": "20-22/1"
    },
    {
        "name": "新城藥房集團有限公司",
        "Address": "新界馬鞍山鞍祿街新港城中心L2, 2E-27號鋪",
        "location": "馬鞍山",
        "area": "新界",
        "date": "12-13, 23-24/1"
    },
    {
        "name": "偉大藥行",
        "Address": "新界青衣寮肚路9號長 宏邨商場地下 1號舖",
        "location": "青衣",
        "area": "新界",
        "date": "8-10/1"
    },
    {
        "name": "永寧葯房",
        "Address": "新界西貢宜春街18號",
        "location": "西貢",
        "area": "新界",
        "date": "15-16/1"
    },
    {
        "name": "德仁藥房",
        "Address": "新界葵芳盛芳街29號",
        "location": "葵芳",
        "area": "新界",
        "date": "11-13, 25-27/1"
    },
    {
        "name": "港城中西大葯房",
        "Address": "新界葵芳盛芳街15號運芳樓地下3號舖",
        "location": "葵芳",
        "area": "新界",
        "date": "14-16, 28-30/1"
    },
    {
        "name": "德盛中西藥行",
        "Address": "新界葵盛東村商場126號",
        "location": "葵涌",
        "area": "新界",
        "date": "15-16/1"
    },
    {
        "name": "緯昌西藥房",
        "Address": "新界葵涌石陰路葵麗樓39鋪地下",
        "location": "石蔭路",
        "area": "新界",
        "date": "6-7/1"
    },
    {
        "name": "榮華參茸中西藥房",
        "Address": "新界葵涌石蔭路98-100號葵發大廈地下",
        "location": "石蔭路",
        "area": "新界",
        "date": "9-10/1"
    },
    {
        "name": "宏泰藥房",
        "Address": "新界葵涌石蔭路71號金祿樓地下4號舖",
        "location": "石蔭路",
        "area": "新界",
        "date": "23-24/1"
    },
    {
        "name": "濟生藥行",
        "Address": "新界荃灣荃景圍荃灣中心S40A",
        "location": "荃灣",
        "area": "新界",
        "date": "2-3/1"
    },
    {
        "name": "長春中西藥行",
        "Address": "新界荃灣海濱花園平台商場127號",
        "location": "荃灣",
        "area": "新界",
        "date": "8-9/1"
    },
    {
        "name": "長春中西藥行",
        "Address": "新界荃灣河背街77號舖",
        "location": "荃灣",
        "area": "新界",
        "date": "22-23/1"
    },
    {
        "name": "潮盛大藥房",
        "Address": "新界荃灣新村街52號地下",
        "location": "荃灣",
        "area": "新界",
        "date": "23-24/1"
    },
    {
        "name": "信大藥房有限公司",
        "Address": "新界荃灣川龍街35-39號川龍樓 地下1號鋪",
        "location": "荃灣",
        "area": "新界",
        "date": "9-10/1"
    },
    {
        "name": "智生藥房",
        "Address": "新界石蔭路天安樓78號A",
        "location": "石蔭路",
        "area": "新界",
        "date": "16-17/1"
    },
    {
        "name": "陳萬昌藥行",
        "Address": "新界石蔭路105號國寶樓B座地下",
        "location": "石蔭路",
        "area": "新界",
        "date": "2-3/1"
    },
    {
        "name": "成豐中西藥行(香港)有限公司",
        "Address": "新界沙田車公廟路69號顯徑村顯徑商場地下 111號鋪",
        "location": "大圍",
        "area": "新界",
        "date": "9-10/1"
    },
    {
        "name": "榮華蔘茸中西藥房",
        "Address": "新界沙田第一城商場G35-36",
        "location": "沙田",
        "area": "新界",
        "date": "9-10, 20-21/1"
    },
    {
        "name": "龍誠大藥行有限公司",
        "Address": "新界沙田水泉澳廣場G03號鋪",
        "location": "沙田",
        "area": "新界",
        "date": "13-15/1"
    },
    {
        "name": "智文大藥房(希爾頓中心)",
        "Address": "新界沙田正街希爾頓中心3樓32號舖",
        "location": "沙田",
        "area": "新界",
        "date": "9-10, 23-24/1"
    },
    {
        "name": "成豐參茸海味中西藥行(廣源)",
        "Address": "新界沙田廣源村商場2座13號",
        "location": "沙田",
        "area": "新界",
        "date": "11-12/1"
    },
    {
        "name": "智文大藥房(沙田廣場)",
        "Address": "新界沙田廣場3樓37號舖",
        "location": "沙田",
        "area": "新界",
        "date": "16-17, 30-31/1"
    },
    {
        "name": "萬順安粧藥",
        "Address": "新界沙田安群街1號京瑞廣場2期地下 G12鋪",
        "location": "沙田",
        "area": "新界",
        "date": "9-10, 23-24/1"
    },
    {
        "name": "仁安大藥房",
        "Address": "新界沙田大圍大圍道50號地下",
        "location": "大圍",
        "area": "新界",
        "date": "1-3, 15-17/1"
    },
    {
        "name": "金峰蔘茸海味中西大藥房",
        "Address": "新界梨木樹商場地下7-8號",
        "location": "梨木樹",
        "area": "新界",
        "date": "28-30/1"
    },
    {
        "name": "榮華參茸中西藥房",
        "Address": "新界常將軍澳寧路２號厚德村TKO GATEWAY東翼地下E035-036號舖",
        "location": "將軍澳",
        "area": "新界",
        "date": "16-17/1"
    },
    {
        "name": "新利西藥房",
        "Address": "新界屯門鄉事會路94-110號康利中心地下21號舖",
        "location": "屯門北",
        "area": "新界",
        "date": "11-12/1"
    },
    {
        "name": "華興大藥房",
        "Address": "新界屯門鄉事會路64-66號泰興大樓地下A&B號",
        "location": "屯門北",
        "area": "新界",
        "date": "23-24/1"
    },
    {
        "name": "金都城中西大藥行",
        "Address": "新界屯門鄉事會路140號",
        "location": "屯門北",
        "area": "新界",
        "date": "11-12, 23-24/1"
    },
    {
        "name": "聯益中西葯房",
        "Address": "新界屯門蝴蝶邨 蝴蝶廣場地下R107",
        "location": "屯門南",
        "area": "新界",
        "date": "3-5/1"
    },
    {
        "name": "祥益西葯房",
        "Address": "新界屯門良景邨商場L431號",
        "location": "屯門北",
        "area": "新界",
        "date": "14-16/1"
    },
    {
        "name": "東亞中西藥房(置樂)",
        "Address": "新界屯門置樂花園商場 1-4號地下",
        "location": "屯門南",
        "area": "新界",
        "date": "8-9, 15-17/1"
    },
    {
        "name": "歐冠大藥房",
        "Address": "新界屯門湖翠路168-236號海趣坊35-36號鋪(百佳側)",
        "location": "屯門南",
        "area": "新界",
        "date": "22-24/1"
    },
    {
        "name": "智文大藥房(時代南翼一樓)",
        "Address": "新界屯門時代廣場南翼1樓15號舖",
        "location": "屯門北",
        "area": "新界",
        "date": "16-17/1"
    },
    {
        "name": "康達大藥房有限公司",
        "Address": "新界屯門寶怡花園商場地下G3號舖",
        "location": "屯門北",
        "area": "新界",
        "date": "8-9/1"
    },
    {
        "name": "尚德中西藥房",
        "Address": "新界屯門富泰邨富泰商場1樓 103B 鋪",
        "location": "屯門北",
        "area": "新界",
        "date": "23-24/1"
    },
    {
        "name": "安寧大藥坊",
        "Address": "新界屯門富泰村商場 2/F 212號",
        "location": "洪水橋",
        "area": "新界",
        "date": "9-10/1"
    },
    {
        "name": "學勤藥房有限公司",
        "Address": "新界屯門啟發徑1-5 & 9-13號萬成大廈地下3號舖",
        "location": "屯門北",
        "area": "新界",
        "date": "10-11, 29-30/1"
    },
    {
        "name": "新宏興中西藥房",
        "Address": "新界屯門啟民徑17-19號美恒大廈2號地下",
        "location": "屯門北",
        "area": "新界",
        "date": "16-17/1"
    },
    {
        "name": "仁康中西藥房(香港)有限公司",
        "Address": "新界將軍澳新都城第二期UG80-81號舖",
        "location": "將軍澳",
        "area": "新界",
        "date": "9-10, 30-31/1"
    },
    {
        "name": "新城中西葯行",
        "Address": "新界將軍澳新都城第一期商場218號",
        "location": "將軍澳",
        "area": "新界",
        "date": "6-7/1"
    },
    {
        "name": "新都城中西藥房有限公司",
        "Address": "新界將軍澳新都城2期UG37-38 號",
        "location": "將軍澳",
        "area": "新界",
        "date": "4-5,13-14/1"
    },
    {
        "name": "興達藥房",
        "Address": "新界將軍澳彩明苑彩明商場3樓306號",
        "location": "將軍澳",
        "area": "新界",
        "date": "23-24/1"
    },
    {
        "name": "新城中西藥房(香港)有限公司",
        "Address": "新界將軍澳康城路1號The LOHAS 康城2樓204號舖",
        "location": "將軍澳",
        "area": "新界",
        "date": "16-17/1"
    },
    {
        "name": "榮華參茸中西藥房",
        "Address": "新界將軍澳尚德邨商場2樓201號B",
        "location": "將軍澳",
        "area": "新界",
        "date": "9-10/1"
    },
    {
        "name": "尚德藥業公司",
        "Address": "新界將軍澳尚德村商場2樓241號舖",
        "location": "將軍澳",
        "area": "新界",
        "date": "23-24/1"
    },
    {
        "name": "東城藥房有限公司",
        "Address": "新界將軍澳坑口重華路8號東港城215號舖",
        "location": "將軍澳",
        "area": "新界",
        "date": "30-31/1"
    },
    {
        "name": "仁康藥房",
        "Address": "新界將軍澳坑口培成路15號連理街商場1樓107號舖",
        "location": "將軍澳",
        "area": "新界",
        "date": "9-10, 23-24/1"
    },
    {
        "name": "榮華藥房(豪庭)",
        "Address": "新界將軍澳唐德街9號將軍澳豪庭地下 G102號鋪",
        "location": "將軍澳",
        "area": "新界",
        "date": "16-17/1"
    },
    {
        "name": "榮華參茸中西藥房",
        "Address": "新界將軍澳君傲灣君薈坊G/F, G16-18號鋪",
        "location": "將軍澳",
        "area": "新界",
        "date": "30-31/1"
    },
    {
        "name": "寶健大藥房有限公司",
        "Address": "新界天水圍新北江商場地下A19-A21",
        "location": "天水圍",
        "area": "新界",
        "date": "8-9/1"
    },
    {
        "name": "榮華參茸中西藥房(天悅)",
        "Address": "新界天水圍天華路33及39號天悅邨NG07 號舖",
        "location": "天水圍",
        "area": "新界",
        "date": "15-16/1"
    },
    {
        "name": "駿宏參茸中西藥房",
        "Address": "新界天水圍天華路30號T TOWN (前頌富廣場) 24號地下",
        "location": "天水圍",
        "area": "新界",
        "date": "28-29/1"
    },
    {
        "name": "道安(富榮)藥房有限公司",
        "Address": "新界天水圍天澤村天澤商場2樓223-224號舖",
        "location": "天水圍",
        "area": "新界",
        "date": "18-19/1"
    },
    {
        "name": "榮華參茸中西葯房(天澤)",
        "Address": "新界天水圍天澤村商場2/F 213B號",
        "location": "天水圍",
        "area": "新界",
        "date": "25-26/1"
    },
    {
        "name": "寶健大藥房(香港)有限公司",
        "Address": "新界天水圍天恩路12號嘉湖銀座一期 1樓 139號",
        "location": "天水圍",
        "area": "新界",
        "date": "22-23/1"
    },
    {
        "name": "東昇蔘茸葯房有限公司",
        "Address": "新界大埔運頭塘邨商場12號",
        "location": "大埔",
        "area": "新界",
        "date": "9-10, 23-24/1"
    },
    {
        "name": "仁泰中西藥行",
        "Address": "新界大埔廣福商場P205號舖",
        "location": "大埔",
        "area": "新界",
        "date": "29-31/1"
    },
    {
        "name": "富善中西藥行",
        "Address": "新界大埔富善邨商場F123舖",
        "location": "大埔",
        "area": "新界",
        "date": "15-16/1"
    },
    {
        "name": "文康大葯房",
        "Address": "新界大埔安慈路翠屛商場16號舖地下",
        "location": "大埔",
        "area": "新界",
        "date": "29-30/1"
    },
    {
        "name": "冠華西葯房 O/B 加揚投資有限公司",
        "Address": "新界大埔墟寶鄉街72號地下",
        "location": "大埔",
        "area": "新界",
        "date": "9-11/1"
    },
    {
        "name": "華氏大葯房有限公司",
        "Address": "新界元朗福康街2號地下",
        "location": "元朗",
        "area": "新界",
        "date": "6-8/1"
    },
    {
        "name": "洪運參茸中西藥行有限公司",
        "Address": "新界元朗洪水橋田心路洪福商場 3號舖",
        "location": "洪水橋",
        "area": "新界",
        "date": "30-31/1"
    },
    {
        "name": "智文藥業有限公司",
        "Address": "新界元朗教育路3號富好大廈3號舖",
        "location": "元朗",
        "area": "新界",
        "date": "4-5, 18-19/1"
    },
    {
        "name": "健昌藥行",
        "Address": "新界元朗屏匯街9號同發大廈 O 號舖",
        "location": "元朗",
        "area": "新界",
        "date": "11-13/1"
    },
    {
        "name": "天瑞中西藥房",
        "Address": "新界元朗天水圍天耀廣場1樓102室",
        "location": "天水圍",
        "area": "新界",
        "date": "15-16/1"
    },
    {
        "name": "天瑞藥房",
        "Address": "新界元朗天水圍天瑞邨天瑞商場1樓106號",
        "location": "天水圍",
        "area": "新界",
        "date": "22-23/1"
    },
    {
        "name": "天恩藥業有限公司",
        "Address": "新界元朗天水圍天瑞路9號天恩商場街巿地鋪2號",
        "location": "天水圍",
        "area": "新界",
        "date": "11-12/1"
    },
    {
        "name": "冠誠西葯房",
        "Address": "新界元朗大棠路23號合益廣場地下A57",
        "location": "元朗",
        "area": "新界",
        "date": "16-18/1"
    },
    {
        "name": "天滙中西藥房",
        "Address": "新界元朗 天水圍天盛商場 1樓 107號",
        "location": "天水圍",
        "area": "新界",
        "date": "8-9/1"
    },
    {
        "name": "新城中西葯房",
        "Address": "九龍黃大仙彩虹道121號啟德花園2期地下3B室",
        "location": "黃大仙",
        "area": "九龍",
        "date": "14-15/1"
    },
    {
        "name": "智文大藥房(黃大仙中心)",
        "Address": "九龍黃大仙中心一樓123A舖",
        "location": "黃大仙",
        "area": "九龍",
        "date": "16-17/1"
    },
    {
        "name": "順悅西藥行",
        "Address": "九龍順利紀律部隊宿舍第二層平台商鋪15B1",
        "location": "觀塘",
        "area": "九龍",
        "date": "8-9/1"
    },
    {
        "name": "榮華蔘茸中西藥行",
        "Address": "九龍青山道320號",
        "location": "長沙灣",
        "area": "九龍",
        "date": "27-28/1"
    },
    {
        "name": "富明西藥房",
        "Address": "九龍長沙灣青山道308號",
        "location": "長沙灣",
        "area": "九龍",
        "date": "8-9, 15-16/1"
    },
    {
        "name": "永華西葯行有限公司",
        "Address": "九龍長沙灣青山道277號地下",
        "location": "長沙灣",
        "area": "九龍",
        "date": "7-8, 23-24/1"
    },
    {
        "name": "東昇西藥房有限公司",
        "Address": "九龍觀塘秀茂坪寶琳路2號安達商場LG23號鋪",
        "location": "秀茂坪",
        "area": "九龍",
        "date": "15-16/1"
    },
    {
        "name": "大來大藥房有限公司",
        "Address": "九龍觀塘協和街99號J鋪2樓B-D",
        "location": "觀塘",
        "area": "九龍",
        "date": "8-9/1"
    },
    {
        "name": "裕興中西藥行",
        "Address": "九龍藍田德田商場1樓113-116號",
        "location": "藍田",
        "area": "九龍",
        "date": "9-10./1"
    },
    {
        "name": "仁信大藥房香港有限公司",
        "Address": "九龍藍田啟田道49號16-17號舖",
        "location": "藍田",
        "area": "九龍",
        "date": "26-27/1"
    },
    {
        "name": "啟源中西葯房有限公司",
        "Address": "九龍藍田啟田村啟田商場 #214A",
        "location": "藍田",
        "area": "九龍",
        "date": "16-17./1"
    },
    {
        "name": "寶泰藥房有限公司",
        "Address": "九龍藍田匯景商場3樓4A2-7號舖6",
        "location": "藍田",
        "area": "九龍",
        "date": "14-16/1"
    },
    {
        "name": "啟源中西藥房有限公司",
        "Address": "九龍茶果嶺道88號麗港城商場地下10-11號舖",
        "location": "藍田",
        "area": "九龍",
        "date": "9-10/1"
    },
    {
        "name": "榮華中西藥房",
        "Address": "九龍紅磡黃埔花園紫荊苑商場地下",
        "location": "紅磡",
        "area": "九龍",
        "date": "9-10/1"
    },
    {
        "name": "康福藥業有限公司",
        "Address": "九龍紅磡湖光街7號聯成大廈鴻運閣",
        "location": "紅磡",
        "area": "九龍",
        "date": "14-15, 25-26/1"
    },
    {
        "name": "正安中西藥房",
        "Address": "九龍紅磡德民街2-34號紅磡商場3號地舖",
        "location": "紅磡",
        "area": "九龍",
        "date": "23-24/1"
    },
    {
        "name": "寶達藥房有限公司",
        "Address": "九龍秀茂坪寶琳路2號寶達商場地下 16 號鋪",
        "location": "秀茂坪",
        "area": "九龍",
        "date": "9-10/1"
    },
    {
        "name": "冠生中西大葯房",
        "Address": "九龍秀茂坪商場1樓109-110號",
        "location": "秀茂坪",
        "area": "九龍",
        "date": "11-12, 20-21, 29-30/1"
    },
    {
        "name": "寶健大藥房(集團)有限公司",
        "Address": "馬鞍山廣場3樓342, 342A & 342B鋪",
        "location": "馬鞍山",
        "area": "九龍",
        "date": "4-5,30-31/1"
    },
    {
        "name": "卓興藥粧",
        "Address": "九龍牛頭角道55號利基大廈地下 A3 & B 號鋪",
        "location": "牛頭角",
        "area": "九龍",
        "date": "9-10./1"
    },
    {
        "name": "鈞興大藥房有限公司",
        "Address": "九龍牛頭角道33號宏光樓地下6號舖",
        "location": "牛頭角",
        "area": "九龍",
        "date": "23-24/1"
    },
    {
        "name": "樂華藥業",
        "Address": "九龍牛頭角樂華北邨樂華北商場二樓204號舖",
        "location": "牛頭角",
        "area": "九龍",
        "date": "30-31/1"
    },
    {
        "name": "榮華蔘茸中西葯房",
        "Address": "九龍牛池灣清水灣道21號文德樓地舖",
        "location": "牛池灣",
        "area": "九龍",
        "date": "15-16/1"
    },
    {
        "name": "福興大藥房",
        "Address": "九龍灣牛頭角道77號淘大商場二期地下G181A 號舖",
        "location": "九龍灣",
        "area": "九龍",
        "date": "30-31/1"
    },
    {
        "name": "嘉福中西大藥房",
        "Address": "九龍灣啟晴村晴朗商場A011號舖",
        "location": "九龍灣",
        "area": "九龍",
        "date": "9-10, 23-24/1"
    },
    {
        "name": "祥興藥房",
        "Address": "九龍深水埔北河街 201 號地下",
        "location": "深水埗",
        "area": "九龍",
        "date": "9-10, 22-24/1"
    },
    {
        "name": "榮華蔘茸中西葯房",
        "Address": "九龍油塘鯉魚門廣場 106-107舖",
        "location": "油塘",
        "area": "九龍",
        "date": "6-7, 22-23/1"
    },
    {
        "name": "榮華藥坊",
        "Address": "九龍油塘油麗苑商場1樓111-112號",
        "location": "油塘",
        "area": "九龍",
        "date": "16-17/1"
    },
    {
        "name": "鴻運大藥房有限公司",
        "Address": "九龍新蒲崗爵祿街五十號地下E舖",
        "location": "新蒲崗",
        "area": "九龍",
        "date": "28-29/1"
    },
    {
        "name": "鴻運中西大藥房有限公司",
        "Address": "九龍新蒲崗爵祿街62-64號地下D,E舖",
        "location": "新蒲崗",
        "area": "九龍",
        "date": "12-13/1"
    },
    {
        "name": "宏輝中西葯行",
        "Address": "九龍新蒲崗崇齡街44號地下",
        "location": "新蒲崗",
        "area": "九龍",
        "date": "9-10/1"
    },
    {
        "name": "智文(慈雲山中心)",
        "Address": "九龍慈雲山毓華街23號慈雲山中心 5樓507號鋪",
        "location": "慈雲山",
        "area": "九龍",
        "date": "8-9/1"
    },
    {
        "name": "金城中西藥行",
        "Address": "九龍慈雲山慈正村商場2期地下3號舖",
        "location": "慈雲山",
        "area": "九龍",
        "date": "6-7/1"
    },
    {
        "name": "彩運藥房",
        "Address": "九龍彩雲一村彩雲商場二期3樓A308號舖",
        "location": "牛池灣",
        "area": "九龍",
        "date": "11-12/1"
    },
    {
        "name": "仁康港灣藥房",
        "Address": "九龍大角咀福利街8號港灣豪庭廣場G23",
        "location": "大角嘴",
        "area": "九龍",
        "date": "2-3/1"
    },
    {
        "name": "仁愛藥房",
        "Address": "九龍大角咀埃華街57號地下",
        "location": "大角嘴",
        "area": "九龍",
        "date": "9-10, 22-23/1"
    },
    {
        "name": "仁寶堂中西藥坊",
        "Address": "九龍土瓜灣馬頭角道9號地下",
        "location": "土瓜灣",
        "area": "九龍",
        "date": "6-7/1"
    },
    {
        "name": "全家福",
        "Address": "九龍土瓜灣馬頭圍道404號地下",
        "location": "土瓜灣",
        "area": "九龍",
        "date": "6-7/1"
    },
    {
        "name": "嘉福(藝林)中西藥行",
        "Address": "九龍土瓜灣道 78A定安大廈地下1號鋪",
        "location": "土瓜灣",
        "area": "九龍",
        "date": "16-17/1"
    },
    {
        "name": "潮發大藥房",
        "Address": "九龍九龍城衙前圍道88號地下G/F",
        "location": "九龍城",
        "area": "九龍",
        "date": "16-17/1"
    }
]